{
"type": "FeatureCollection",
"name": "T3_service",
"crs": { "type": "name", "properties": { "name": "urn:ogc:def:crs:OGC:1.3:CRS84" } },
"features": [
{ "type": "Feature", "properties": { "feature_id": "service_first_l1", "name": "First Aid", "type": "emergency", "level": "1" }, "geometry": { "type": "Point", "coordinates": [ -118.40702735964841, 33.945079277360719 ] } },
{ "type": "Feature", "properties": { "feature_id": "service_information_l1", "name": "Airport Information", "type": "information", "level": "1" }, "geometry": { "type": "Point", "coordinates": [ -118.406157768251745, 33.945164371219356 ] } },
{ "type": "Feature", "properties": { "feature_id": "service_first_l1", "name": "First Aid", "type": "emergency", "level": "1" }, "geometry": { "type": "Point", "coordinates": [ -118.405375054800388, 33.945313453658429 ] } },
{ "type": "Feature", "properties": { "feature_id": "service_art_l1", "name": "Art Display", "type": "art", "level": "1" }, "geometry": { "type": "Point", "coordinates": [ -118.405487180280517, 33.945522212230152 ] } },
{ "type": "Feature", "properties": { "feature_id": "service_water_l1", "name": "Water Refill Station", "type": "refill", "level": "1" }, "geometry": { "type": "Point", "coordinates": [ -118.406062515648813, 33.945488236348382 ] } },
{ "type": "Feature", "properties": { "feature_id": "service_first_l2", "name": "First Aid", "type": "emergency", "level": "2" }, "geometry": { "type": "Point", "coordinates": [ -118.407021144800922, 33.945153843133838 ] } },
{ "type": "Feature", "properties": { "feature_id": "service_first_l2", "name": "First Aid", "type": "emergency", "level": "2" }, "geometry": { "type": "Point", "coordinates": [ -118.406503478841216, 33.945123074007704 ] } },
{ "type": "Feature", "properties": { "feature_id": "service_first_l2", "name": "First Aid", "type": "emergency", "level": "2" }, "geometry": { "type": "Point", "coordinates": [ -118.406253758572859, 33.945210076335634 ] } },
{ "type": "Feature", "properties": { "feature_id": "service_first_l2", "name": "First Aid", "type": "emergency", "level": "2" }, "geometry": { "type": "Point", "coordinates": [ -118.405361032594186, 33.945314054610897 ] } },
{ "type": "Feature", "properties": { "feature_id": "service_art_l3", "name": "Art Display", "type": "art", "level": "3" }, "geometry": { "type": "Point", "coordinates": [ -118.407037151804133, 33.945092493881681 ] } },
{ "type": "Feature", "properties": { "feature_id": "service_art_l3", "name": "Art Display", "type": "art", "level": "3" }, "geometry": { "type": "Point", "coordinates": [ -118.406652228736235, 33.945060832359509 ] } },
{ "type": "Feature", "properties": { "feature_id": "service_first_l3", "name": "First Aid", "type": "emergency", "level": "3" }, "geometry": { "type": "Point", "coordinates": [ -118.405211783334821, 33.945469598700576 ] } },
{ "type": "Feature", "properties": { "feature_id": "service_art_l3", "name": "Art Display", "type": "art", "level": "3" }, "geometry": { "type": "Point", "coordinates": [ -118.405012834333391, 33.945299017358678 ] } },
{ "type": "Feature", "properties": { "feature_id": "service_art_l3", "name": "Art Display", "type": "art", "level": "3" }, "geometry": { "type": "Point", "coordinates": [ -118.405369531227208, 33.945239911788143 ] } },
{ "type": "Feature", "properties": { "feature_id": "service_clear_l3", "name": "CLEAR", "type": "security", "level": "3" }, "geometry": { "type": "Point", "coordinates": [ -118.405373628575049, 33.94519572421018 ] } },
{ "type": "Feature", "properties": { "feature_id": "service_first_l3", "name": "First Aid", "type": "emergency", "level": "3" }, "geometry": { "type": "Point", "coordinates": [ -118.407377459306446, 33.945991663605916 ] } },
{ "type": "Feature", "properties": { "feature_id": "service_first_l3", "name": "First Aid", "type": "Emergency", "level": "3" }, "geometry": { "type": "Point", "coordinates": [ -118.407538621655391, 33.9463500699474 ] } },
{ "type": "Feature", "properties": { "feature_id": "service_water_l3", "name": "Water Refill Station", "type": "refill", "level": "3" }, "geometry": { "type": "Point", "coordinates": [ -118.407144821000472, 33.946381038601544 ] } },
{ "type": "Feature", "properties": { "feature_id": "service_tsa_l3", "name": "TSA PreCheck", "type": "security", "level": "3" }, "geometry": { "type": "Point", "coordinates": [ -118.406045486922153, 33.945121632660801 ] } },
{ "type": "Feature", "properties": { "feature_id": "service_ride_t3", "name": "Shared Ride Vans/Charter Buses", "type": "ride", "level": null }, "geometry": { "type": "Point", "coordinates": [ -118.407273304314273, 33.944808031253622 ] } },
{ "type": "Feature", "properties": { "feature_id": "service_passenger_t3", "name": "Passenger Pickup", "type": "passenger", "level": null }, "geometry": { "type": "Point", "coordinates": [ -118.407040164684375, 33.944830915285628 ] } },
{ "type": "Feature", "properties": { "feature_id": "service_econ_t3", "name": "Hotel & Private Parking Shuttle - T3", "type": "parking", "level": null }, "geometry": { "type": "Point", "coordinates": [ -118.407041944376218, 33.944952717287968 ] } },
{ "type": "Feature", "properties": { "feature_id": "service_smarte_t3", "name": "SmarteCartes", "type": "amenities", "level": "1" }, "geometry": { "type": "Point", "coordinates": [ -118.406961747013071, 33.944998300719774 ] } },
{ "type": "Feature", "properties": { "feature_id": "service_shuttle_t3", "name": "Rental Car Shuttles", "type": "shuttle", "level": null }, "geometry": { "type": "Point", "coordinates": [ -118.406640290176014, 33.94487170052097 ] } },
{ "type": "Feature", "properties": { "feature_id": "service_shuttle_t3", "name": "LAX Rental Car Center Shuttle T3", "type": "shuttle", "level": null }, "geometry": { "type": "Point", "coordinates": [ -118.406596687726193, 33.944874653297418 ] } },
{ "type": "Feature", "properties": { "feature_id": "service_access_t3", "name": "Access Paratransit", "type": "access", "level": null }, "geometry": { "type": "Point", "coordinates": [ -118.406273228735827, 33.945001253491832 ] } },
{ "type": "Feature", "properties": { "feature_id": "service_connector_t3", "name": "Metro Connector Terminal 3", "type": "connector", "level": null }, "geometry": { "type": "Point", "coordinates": [ -118.406044983258496, 33.945023768375485 ] } },
{ "type": "Feature", "properties": { "feature_id": "service_econ_t3", "name": "LAX Budget Parking Terminal 3", "type": "parking", "level": null }, "geometry": { "type": "Point", "coordinates": [ -118.405998711270868, 33.945029673917752 ] } },
{ "type": "Feature", "properties": { "feature_id": "service_connector_t3", "name": "Terminal Connector Terminal 3", "type": "connector", "level": null }, "geometry": { "type": "Point", "coordinates": [ -118.405945320515926, 33.945034841266903 ] } },
{ "type": "Feature", "properties": { "feature_id": "service_econ_t3", "name": "LAX Economy Parking - Terminal 3", "type": "parking", "level": null }, "geometry": { "type": "Point", "coordinates": [ -118.405909726679369, 33.945040746808409 ] } },
{ "type": "Feature", "properties": { "feature_id": "service_passenger_t3", "name": "Passenger Pickup", "type": "passenger", "level": null }, "geometry": { "type": "Point", "coordinates": [ -118.405719299653427, 33.944963236543607 ] } },
{ "type": "Feature", "properties": { "feature_id": "service_laxit_t3", "name": "LAX-it - Terminal 3", "type": "laxit", "level": null }, "geometry": { "type": "Point", "coordinates": [ -118.405689934738191, 33.945062154392907 ] } },
{ "type": "Feature", "properties": { "feature_id": "service_access_t3", "name": "Access Paratransit", "type": "access", "level": null }, "geometry": { "type": "Point", "coordinates": [ -118.405552898467192, 33.945102016777298 ] } },
{ "type": "Feature", "properties": { "feature_id": "service_ada_t3", "name": "ADA Passenger Loading Zone", "type": "ada", "level": null }, "geometry": { "type": "Point", "coordinates": [ -118.405186726872856, 33.945021922893446 ] } },
{ "type": "Feature", "properties": { "feature_id": "service_laxfly_t3", "name": "LAX FlyAway - Terminal 3", "type": "bus", "level": null }, "geometry": { "type": "Point", "coordinates": [ -118.405136450578638, 33.945117518810648 ] } },
{ "type": "Feature", "properties": { "feature_id": "service_smarte_t3", "name": "SmarteCartes", "type": "amenities", "level": null }, "geometry": { "type": "Point", "coordinates": [ -118.405048355832974, 33.945126377114136 ] } }
]
}
